,City,Lat,Lng,Max Temp,Humidity,Cloudiness,Wind Speed,Country,Date
0,Hermanus,-34.4187,19.2345,64.0,68,3,1.01,ZA,1619886496
1,Hamilton,39.1834,-84.5333,61.0,44,1,13.8,US,1619886241
2,Vaini,-21.2,-175.2,75.2,83,20,10.36,TO,1619886429
3,Yukhnov,54.7444,35.2297,49.23,63,61,5.55,RU,1619886518
4,Ziniaré,12.5822,-1.2983,102.2,25,0,5.75,BF,1619886518
5,Kaitangata,-46.2817,169.8464,48.0,72,1,5.99,NZ,1619886487
6,Mar del Plata,-38.0023,-57.5575,69.8,64,0,11.5,AR,1619886519
7,Olafsvik,64.8945,-23.7142,37.99,65,53,20.78,IS,1619886519
8,Lebu,-37.6167,-73.65,55.74,91,100,14.52,CL,1619886519
9,Parabel',58.6978,81.4825,37.42,78,77,14.61,RU,1619886520
10,Nacala,-14.5428,40.6728,77.09,87,37,5.55,MZ,1619886520
11,Puerto Ayora,-0.7393,-90.3518,82.4,69,75,17.27,EC,1619886520
12,Yellowknife,62.456,-114.3525,24.01,68,75,9.22,CA,1619886440
13,Loukhi,66.0764,33.0381,31.87,57,62,6.89,RU,1619886521
14,Punta Arenas,-53.15,-70.9167,44.6,81,20,11.5,CL,1619886521
15,Ballitoville,-29.539,31.2144,68.0,77,20,4.61,ZA,1619886521
16,Hobart,-42.8794,147.3294,55.4,71,99,11.5,AU,1619886340
17,Rikitea,-23.1203,-134.9692,76.44,81,83,9.15,PF,1619886522
18,Kūhdasht,33.535,47.6061,68.79,26,57,9.75,IR,1619886522
19,Hilo,19.7297,-155.09,71.6,68,40,9.22,US,1619886418
20,Bredasdorp,-34.5322,20.0403,59.0,72,0,5.75,ZA,1619886523
21,Caravelas,-17.7125,-39.2481,78.08,63,100,10.67,BR,1619886523
22,Hasaki,35.7333,140.8333,59.0,94,20,6.91,JP,1619886523
23,Portalegre,39.2938,-7.4312,61.0,38,42,13.0,PT,1619886524
24,Souillac,-20.5167,57.5167,75.2,88,40,3.44,MU,1619886524
25,Dingle,10.9995,122.6711,77.65,83,9,6.6,PH,1619886524
26,Tuktoyaktuk,69.4541,-133.0374,12.2,85,40,9.22,CA,1619886525
27,Albany,42.6001,-73.9662,48.99,70,19,1.01,US,1619886359
28,Port Alfred,-33.5906,26.891,62.6,62,0,4.32,ZA,1619886525
29,Yerbogachën,61.2767,108.0108,31.35,95,100,2.48,RU,1619886525
30,Nanortalik,60.1432,-45.2371,40.66,56,27,11.05,GL,1619886526
31,Qaanaaq,77.484,-69.3632,35.73,66,100,6.38,GL,1619886433
32,Solnechnyy,50.7214,136.6319,34.74,86,100,8.08,RU,1619886526
33,Faanui,-16.4833,-151.75,80.46,69,88,5.99,PF,1619886527
34,Paamiut,61.994,-49.6678,38.79,62,31,0.98,GL,1619886527
35,Morón,-34.6534,-58.6198,78.01,44,0,10.36,AR,1619886382
36,Kysyl-Syr,63.8986,122.7617,34.23,97,100,5.73,RU,1619886527
37,Svetlaya,46.5389,138.3297,38.86,83,86,4.25,RU,1619886528
38,Gualeguay,-33.1416,-59.3097,73.69,53,0,10.38,AR,1619886528
39,Saravan,39.7196,45.6483,50.27,77,82,4.92,AM,1619886528
40,Porto-Novo,6.4965,2.6036,89.6,70,40,16.11,BJ,1619886529
41,Longyearbyen,78.2186,15.6401,21.2,63,20,9.22,SJ,1619886529
42,Cocobeach,1.0002,9.5823,84.2,79,40,6.91,GA,1619886529
43,Bluff,-46.6,168.3333,46.0,87,3,5.99,NZ,1619886530
44,Roswell,34.0232,-84.3616,75.0,35,1,3.44,US,1619886236
45,Ushuaia,-54.8,-68.3,42.8,75,20,10.36,AR,1619886349
46,Lypnyazhka,48.4469,31.0761,65.77,65,83,7.27,UA,1619886530
47,Sinnamary,5.3833,-52.95,81.79,77,99,9.08,GF,1619886530
48,Ilo,-17.6394,-71.3375,69.8,68,0,13.8,PE,1619886531
49,Ballina,-28.8667,153.5667,69.8,73,75,10.36,AU,1619886531
50,Husavik,66.0449,-17.3389,37.4,70,75,9.22,IS,1619886528
51,Arman',59.7,150.1667,30.25,93,99,3.24,RU,1619886532
52,Sokoto,13.0609,5.239,106.18,3,9,9.06,NG,1619886532
53,Otuzco,-7.9,-78.5833,66.2,82,90,10.36,PE,1619886532
54,New Norfolk,-42.7826,147.0587,54.0,65,100,3.18,AU,1619886532
55,Inhambane,-23.865,35.3833,73.4,83,40,12.66,MZ,1619886533
56,Rocha,-34.4833,-54.3333,72.81,57,0,6.98,UY,1619886533
57,Okhotsk,59.3833,143.3,31.26,88,100,0.2,RU,1619886533
58,Vardø,70.3705,31.1107,32.76,75,85,7.34,NO,1619886534
59,Iqaluit,63.7506,-68.5145,39.2,75,90,17.27,CA,1619886534
60,Atuona,-9.8,-139.0333,78.15,74,9,6.11,PF,1619886534
61,Cape Town,-33.9258,18.4232,62.01,72,0,11.5,ZA,1619886305
62,San Quintín,30.4833,-115.95,66.99,68,88,10.42,MX,1619886535
63,Coquimbo,-29.9533,-71.3436,62.6,63,0,11.5,CL,1619886255
64,Berdigestyakh,62.0989,126.6992,33.46,98,100,4.0,RU,1619886535
65,Berlevåg,70.8578,29.0864,34.79,77,100,19.08,NO,1619886449
66,Esperance,-33.8667,121.9,53.6,87,2,9.22,AU,1619886536
67,Jamestown,42.097,-79.2353,53.01,36,1,12.66,US,1619886409
68,Keti Bandar,24.1447,67.4497,85.41,62,96,15.95,PK,1619886536
69,Uruçuí,-7.2294,-44.5561,90.01,41,49,9.57,BR,1619886537
70,Saint George,37.1041,-113.5841,78.01,26,1,4.61,US,1619886392
71,Mataura,-46.1927,168.8643,46.0,87,3,5.99,NZ,1619886537
72,Acapulco de Juárez,16.8634,-99.8901,82.4,69,90,6.91,MX,1619886538
73,Erdenet,49.0333,104.0833,46.76,59,60,4.25,MN,1619886538
74,Great Yarmouth,52.6083,1.7305,48.99,71,75,8.05,GB,1619886538
75,East London,-33.0153,27.9116,60.8,82,0,2.3,ZA,1619886478
76,Cabedelo,-6.9811,-34.8339,87.8,58,40,16.11,BR,1619886488
77,Thompson,55.7435,-97.8558,21.2,86,90,11.5,CA,1619886539
78,Kapaa,22.0752,-159.319,73.4,88,90,10.36,US,1619886477
79,Nakapiripirit,1.9167,34.7833,74.93,61,84,4.27,UG,1619886539
80,Klaksvík,62.2266,-6.589,35.6,93,75,3.44,FO,1619886540
81,Saldanha,-33.0117,17.9442,69.8,40,3,6.91,ZA,1619886431
82,Makkah al Mukarramah,21.4267,39.8261,89.89,37,48,6.71,SA,1619886540
83,Papara,-3.9839,-38.7273,87.8,62,40,11.5,BR,1619886541
84,Barrow,71.2906,-156.7887,21.2,86,90,8.05,US,1619886434
85,Santa Cruz de la Sierra,-17.8,-63.1667,82.4,44,1,14.97,BO,1619886315
86,Chaiya,9.3862,99.1986,81.0,94,20,1.14,TH,1619886541
87,Bandar-e Lengeh,26.5579,54.8807,86.0,45,40,4.61,IR,1619886541
88,Butaritari,3.0707,172.7902,82.31,75,100,9.08,KI,1619886542
89,Huarmey,-10.0681,-78.1522,72.5,75,11,10.16,PE,1619886542
90,Kavieng,-2.5744,150.7967,81.75,76,87,4.54,PG,1619886452
91,Bundaberg,-24.85,152.35,69.01,94,75,8.05,AU,1619886543
92,Arraial do Cabo,-22.9661,-42.0278,71.6,83,75,4.61,BR,1619886543
93,Provideniya,64.3833,-173.3,20.57,73,91,5.64,RU,1619886543
94,Upernavik,72.7868,-56.1549,32.5,78,75,1.79,GL,1619886435
95,Hobbs,32.7026,-103.136,64.99,55,20,1.45,US,1619886246
96,Saint Anthony,45.0205,-93.218,75.99,35,1,10.36,US,1619886544
97,Pemangkat,1.1667,108.9667,79.18,84,90,6.91,ID,1619886544
98,Belyy Yar,53.6039,91.3903,44.6,65,0,6.71,RU,1619886544
99,Buala,-8.145,159.5921,78.87,80,76,0.83,SB,1619886545
100,Ilulissat,69.2167,-51.1,39.2,48,20,5.75,GL,1619886545
101,Zhigansk,66.7697,123.3711,30.81,94,100,4.85,RU,1619886545
102,Nowy Dwór Mazowiecki,52.4302,20.7165,51.01,100,20,8.05,PL,1619886499
103,Beringovskiy,63.05,179.3167,19.58,82,100,11.05,RU,1619886546
104,Yulara,-25.2406,130.9889,59.0,38,81,5.75,AU,1619886546
105,Sursk,53.0754,45.6846,55.99,99,100,6.64,RU,1619886546
106,Ponta do Sol,32.6667,-17.1,62.01,61,66,1.99,PT,1619886547
107,Iracoubo,5.4802,-53.2011,81.41,77,100,7.83,GF,1619886547
108,Eral,8.6333,78.0167,84.97,67,90,8.46,IN,1619886547
109,Saskylakh,71.9167,114.0833,30.78,98,100,2.66,RU,1619886548
110,Sayyan,15.1718,44.3244,56.75,77,99,3.85,YE,1619886548
111,Pangascasan,16.1169,120.0866,80.33,77,2,6.35,PH,1619886548
112,Nikolskoye,59.7035,30.7861,44.6,57,20,11.18,RU,1619886549
113,Saint-François,46.4154,3.9054,51.8,82,90,6.91,FR,1619886549
114,Avarua,-21.2078,-159.775,77.0,78,75,5.75,CK,1619886549
115,Taiyuan,37.8694,112.5603,57.2,35,0,13.42,CN,1619886550
116,Quatre Cocos,-20.2078,57.7625,75.99,88,40,3.44,MU,1619886550
117,‘Ewa Beach,21.3156,-158.0072,75.2,69,40,11.5,US,1619886387
118,Øksfjord,70.2396,22.3479,33.8,60,20,11.5,NO,1619886533
119,Oranjemund,-28.55,16.4333,73.83,37,0,9.98,NA,1619886551
120,Wuwei,37.9281,102.6414,65.82,18,89,4.56,CN,1619886551
121,Ozieri,40.586,9.0012,68.0,60,20,24.16,IT,1619886551
122,Deputatsky,69.3,139.9,19.92,98,100,2.48,RU,1619886552
123,George Town,5.4112,100.3354,82.4,88,40,8.05,MY,1619886276
124,Hithadhoo,-0.6,73.0833,84.88,68,99,6.33,MV,1619886552
125,Busselton,-33.65,115.3333,57.99,94,79,3.11,AU,1619886552
126,Yatou,37.15,122.3833,45.7,87,23,10.63,CN,1619886553
127,Pevek,69.7008,170.3133,5.36,96,100,7.11,RU,1619886553
128,Visnes,59.3556,5.2242,48.2,66,9,9.22,NO,1619886553
129,Ribeira Grande,38.5167,-28.7,62.6,94,75,11.5,PT,1619886554
130,Severo-Kuril'sk,50.6789,156.125,35.78,97,100,22.55,RU,1619886457
131,San Luis,-33.295,-66.3356,72.48,32,2,6.38,AR,1619886328
132,Pontal do Paraná,-25.6533,-48.5128,75.2,68,75,10.36,BR,1619886554
133,Khatanga,71.9667,102.5,16.27,93,80,3.31,RU,1619886554
134,Margate,51.3813,1.3862,52.0,53,3,4.0,GB,1619886506
135,Gigmoto,13.7796,124.39,78.12,79,30,4.14,PH,1619886529
136,Saint-Philippe,-21.3585,55.7679,77.0,78,0,4.61,RE,1619886309
137,Varberg,57.1056,12.2508,53.6,43,35,3.44,SE,1619886555
138,Belmonte,-15.8631,-38.8828,77.0,65,75,6.91,BR,1619886555
139,Bereda,43.2686,-7.5406,55.99,58,98,10.0,ES,1619886556
140,Tiksi,71.6872,128.8694,20.25,99,94,2.93,RU,1619886556
141,Bambous Virieux,-20.3428,57.7575,75.99,88,40,3.44,MU,1619886436
142,Saint Paul Harbor,57.79,-152.4072,35.6,87,40,4.61,US,1619886556
143,Road Town,18.4167,-64.6167,82.99,69,40,8.05,VG,1619886557
144,Hong Kong,22.2855,114.1577,80.01,80,80,6.53,HK,1619886557
145,Fortuna,40.5982,-124.1573,55.0,100,90,10.36,US,1619886451
146,Broome,42.2506,-75.833,46.0,65,20,9.22,US,1619886558
147,Žemaičių Naumiestis,55.3592,21.7022,49.89,55,68,7.72,LT,1619886558
148,Baharly,38.4362,57.4316,78.98,35,1,12.53,TM,1619886261
149,San Patricio,28.017,-97.5169,71.6,100,75,14.97,US,1619886558
150,Hohhot,40.8106,111.6522,44.6,31,0,2.24,CN,1619886559
151,Chunoyar,57.4467,97.3217,33.15,94,73,2.17,RU,1619886559
152,Lodja,-3.4833,23.4333,76.46,80,100,1.74,CD,1619886559
153,Vacaria,-28.5122,-50.9339,75.0,14,0,3.0,BR,1619886560
154,Dekar,-21.5333,21.9333,71.47,24,0,7.09,BW,1619886560
155,Rozsypne,48.1497,38.5762,61.29,74,99,5.95,UA,1619886560
156,Methóni,36.8197,21.7049,79.0,31,0,11.16,GR,1619886561
157,Lompoc,34.6391,-120.4579,53.6,100,90,9.22,US,1619886561
158,Tucumcari,35.1717,-103.725,71.6,30,1,13.8,US,1619886562
159,Semey,50.4111,80.2275,41.0,42,0,6.71,KZ,1619886562
160,Kismayo,-0.3582,42.5454,82.62,79,17,10.69,SO,1619886562
161,Mahébourg,-20.4081,57.7,75.2,88,40,3.44,MU,1619886521
162,Winnemucca,40.973,-117.7357,68.0,13,1,10.36,US,1619886535
163,Lauria,40.0465,15.8358,64.72,79,98,5.3,IT,1619886563
164,Sitka,57.0531,-135.33,42.8,87,40,4.61,US,1619886563
165,Port Hardy,50.6996,-127.4199,48.2,76,75,6.91,CA,1619886563
166,Cidreira,-30.1811,-50.2056,71.73,56,0,13.22,BR,1619886538
167,Kaitong,44.8135,123.15,48.58,41,30,5.95,CN,1619886564
168,Olinda,-8.0089,-34.8553,82.4,65,40,16.11,BR,1619886564
169,Grindavik,63.8424,-22.4338,42.8,52,40,18.41,IS,1619886533
170,Castro,-24.7911,-50.0119,72.01,54,50,4.09,BR,1619886565
171,Altamira,-3.2033,-52.2064,75.2,94,40,5.75,BR,1619886565
172,Syracuse,37.0881,15.2792,75.2,50,0,4.61,IT,1619886565
173,Geraldton,-28.7667,114.6,59.0,58,100,10.36,AU,1619886433
174,Chekhov,55.1431,37.4711,52.0,30,0,11.18,RU,1619886566
175,Samfya,-11.3649,29.5565,73.99,66,82,2.53,ZM,1619886483
176,Uusikaupunki,60.8004,21.4084,41.0,36,0,9.22,FI,1619886566
177,Lima,-12.0432,-77.0282,71.01,88,75,9.22,PE,1619886485
178,Reconquista,-29.15,-59.65,78.57,40,0,10.98,AR,1619886567
179,Shemonaīkha,50.6328,81.9056,41.45,44,75,7.29,KZ,1619886567
180,Genhe,50.7833,121.5167,37.09,57,4,2.84,CN,1619886567
181,Villa Bruzual,9.3328,-69.1208,89.08,52,64,2.62,VE,1619886568
182,Clyde River,70.4692,-68.5914,17.6,100,75,2.21,CA,1619886568
183,Nome,64.5011,-165.4064,21.2,79,90,5.75,US,1619886568
184,Maniitsoq,65.4167,-52.9,35.02,80,8,2.39,GL,1619886569
185,Isangel,-19.55,169.2667,75.2,94,90,5.75,VU,1619886569
186,Naze,28.3667,129.4833,62.76,64,96,11.97,JP,1619886569
187,Kargopol',61.5071,38.9456,35.67,45,100,9.51,RU,1619886570
188,Mandan,46.8267,-100.8896,78.8,27,1,17.27,US,1619886570
189,Burnie,-41.0667,145.9167,54.0,93,100,4.0,AU,1619886570
190,Bethel,41.3712,-73.414,57.0,44,1,11.5,US,1619886549
191,Aklavik,68.2191,-135.0107,23.0,86,90,9.22,CA,1619886571
192,Schladming,47.3929,13.687,60.01,73,69,8.01,AT,1619886571
193,Aasiaat,68.7098,-52.8699,33.42,75,35,10.56,GL,1619886572
194,Faro,37.0194,-7.9322,66.2,48,0,17.27,PT,1619886572
195,Kruisfontein,-34.0033,24.7314,59.0,72,0,1.99,ZA,1619886573
196,Havøysund,70.9963,24.6622,32.0,80,75,8.05,NO,1619886574
197,Shumyachi,53.8583,32.4242,49.53,67,90,1.88,RU,1619886574
198,Jumla,29.2747,82.1838,51.96,84,74,2.62,NP,1619886574
199,Buhe,30.2876,112.2298,73.99,69,0,4.41,CN,1619886575
200,Xining,36.6167,101.7667,55.42,37,80,2.39,CN,1619886575
201,Honiara,-9.4333,159.95,76.55,87,84,3.02,SB,1619886303
202,Beloha,-25.1667,45.05,73.0,69,99,9.71,MG,1619886575
203,Cabo San Lucas,22.8909,-109.9124,79.0,73,1,8.05,MX,1619886576
204,Kyabé,9.4515,18.9449,93.6,30,90,4.34,TD,1619886576
205,Mikhaylovka,50.06,43.2379,64.0,65,69,4.0,RU,1619886576
206,Araceli,10.5529,119.9913,83.55,71,9,7.65,PH,1619886577
207,Moengo,5.6167,-54.4,84.61,72,90,3.83,SR,1619886577
208,Flin Flon,54.7682,-101.865,46.4,66,40,9.22,CA,1619886577
209,Vestmannaeyjar,63.4427,-20.2734,35.6,87,75,13.8,IS,1619886578
210,Salalah,17.0151,54.0924,86.0,74,75,8.05,OM,1619886578
211,Tasiilaq,65.6145,-37.6368,28.4,93,20,6.91,GL,1619886469
212,Port Moresby,-9.4431,147.1797,77.0,88,20,5.75,PG,1619886375
213,Dikson,73.5069,80.5464,26.19,85,97,5.66,RU,1619886578
214,Minudasht,37.2289,55.3747,68.0,73,20,9.22,IR,1619886579
215,Bosobolo,4.1833,19.9,86.54,54,84,3.53,CD,1619886579
216,Grand-Lahou,5.1367,-5.0242,85.84,68,64,11.52,CI,1619886579
217,Batticaloa,7.7102,81.6924,82.29,79,100,12.73,LK,1619886580
218,Guerrero Negro,27.9769,-114.0611,69.62,59,7,7.58,MX,1619886580
219,Harper,4.375,-7.7169,84.67,71,92,11.23,LR,1619886543
220,Acaraú,-2.8856,-40.12,81.88,75,99,6.31,BR,1619886581
221,Shimoda,34.6667,138.95,63.0,83,89,5.01,JP,1619886581
222,Takoradze,4.8845,-1.7554,85.86,69,100,13.8,GH,1619886581
223,Hambantota,6.1241,81.1185,80.6,100,75,3.44,LK,1619886582
224,Dunedin,-45.8742,170.5036,46.99,73,0,1.99,NZ,1619886526
225,Arrondissement de Bernay,49.1667,0.6667,48.0,84,89,1.99,FR,1619886582
226,Mackay,-21.15,149.2,68.0,88,32,10.36,AU,1619886582
227,Portland,45.5234,-122.6762,55.0,66,40,13.8,US,1619886440
228,Airai,-8.9266,125.4092,57.16,89,98,3.06,TL,1619886583
229,Bengkulu,-3.8004,102.2655,77.04,90,77,4.38,ID,1619886583
230,Superior,46.7208,-92.1041,68.0,32,1,12.66,US,1619886559
231,Gimli,50.6336,-96.9907,35.6,93,91,3.44,CA,1619886584
232,Carnarvon,-24.8667,113.6333,68.0,73,100,11.5,AU,1619886456
233,Urengoy,65.9667,78.3667,30.63,91,100,8.34,RU,1619886584
234,Bathsheba,13.2167,-59.5167,86.0,51,20,20.71,BB,1619886584
235,Oyem,1.5995,11.5793,87.8,62,75,2.91,GA,1619886585
236,Biu,10.6129,12.1946,95.18,20,99,3.67,NG,1619886585
237,Bima,-8.4667,118.7167,75.94,91,44,1.72,ID,1619886585
238,Mezen',65.8522,44.24,30.47,79,100,13.51,RU,1619886586
239,Aykhal,66.0,111.5,30.27,98,100,5.61,RU,1619886586
240,Port Blair,11.6667,92.75,84.0,72,85,5.17,IN,1619886586
241,Richards Bay,-28.783,32.0377,64.29,83,32,7.9,ZA,1619886489
242,Mossamedes,-15.1961,12.1522,77.0,73,20,25.32,AO,1619886587
243,Sittwe,20.15,92.9,82.98,71,2,4.18,MM,1619886587
244,Malanje,-9.5402,16.341,68.58,87,92,7.11,AO,1619886587
245,Laas,46.6166,10.7002,55.99,87,40,11.5,IT,1619886537
246,La Maddalena,41.2142,9.4083,68.0,94,75,17.27,IT,1619886588
247,Palmer,42.1584,-72.3287,54.0,46,20,13.8,US,1619886588
248,Bumba,2.1833,22.4667,74.5,83,100,1.81,CD,1619886589
249,Haines Junction,60.7522,-137.5108,35.6,69,100,3.44,CA,1619886589
250,Henties Bay,-22.116,14.2845,63.0,85,0,3.0,NA,1619886589
251,San Policarpo,12.1791,125.5072,80.89,80,7,7.85,PH,1619886590
252,Lüderitz,-26.6481,15.1594,69.28,48,0,8.08,NA,1619886590
253,Mount Isa,-20.7333,139.5,66.2,48,0,4.61,AU,1619886522
254,Oktyabr'skoye,43.0645,44.7417,57.2,88,90,11.18,RU,1619886590
255,Teahupoo,-17.8333,-149.2667,77.0,83,40,5.75,PF,1619886591
256,Ponferrada,42.5466,-6.5962,60.01,33,65,5.01,ES,1619886591
257,Los Llanos de Aridane,28.6585,-17.9182,71.6,60,40,12.66,ES,1619886591
258,Vostok,46.4856,135.8833,32.2,82,0,2.62,RU,1619886592
259,Dudinka,69.4058,86.1778,24.66,91,70,5.86,RU,1619886440
260,Rāpar,23.5667,70.6333,90.39,34,85,9.8,IN,1619886592
261,Benguela,-12.5763,13.4055,82.51,77,99,6.89,AO,1619886592
262,Kaeo,-35.1,173.7833,48.99,93,22,6.33,NZ,1619886593
263,Alice Springs,-23.7,133.8833,57.2,47,34,4.61,AU,1619886549
264,San Cristobal,7.7669,-72.225,82.4,65,40,9.22,VE,1619886593
265,Hualmay,-11.0964,-77.6139,71.82,74,84,9.57,PE,1619886594
266,Chokurdakh,70.6333,147.9167,-0.81,100,44,3.33,RU,1619886594
267,Lagoa,39.05,-27.9833,59.16,91,100,21.25,PT,1619886455
268,Zapolyarnyy,69.4154,30.8136,32.0,69,88,8.05,RU,1619886594
269,Wajir,1.7471,40.0573,95.0,41,40,6.4,KE,1619886595
270,Przasnysz,53.0191,20.8803,51.8,58,0,3.44,PL,1619886595
271,Port Elizabeth,-33.918,25.5701,59.0,82,0,8.05,ZA,1619886595
272,Wanning,18.8003,110.3967,78.75,88,20,5.66,CN,1619886596
273,Avanigadda,16.0215,80.9181,83.88,73,2,8.28,IN,1619886426
274,Christchurch,-43.5333,172.6333,42.01,100,90,2.82,NZ,1619886596
275,Krasnosel'kup,65.7,82.4667,33.1,91,100,9.6,RU,1619886597
276,Paita,-5.0892,-81.1144,84.2,54,40,18.41,PE,1619886597
277,Burhaniye,39.5004,26.9727,75.2,57,0,6.91,TR,1619886597
278,Qasigiannguit,68.8193,-51.1922,39.2,48,20,5.75,GL,1619886597
279,Arrondissement d'Ajaccio,42.0,8.9167,60.8,88,90,2.3,FR,1619886598
280,Neturhāt,23.4833,84.2667,76.39,18,42,2.28,IN,1619886598
281,Jalu,29.0331,21.5482,103.73,6,0,12.35,LY,1619886598
282,Qaqortoq,60.7167,-46.0333,50.0,22,1,34.52,GL,1619886551
283,Kamaishi,39.2667,141.8833,49.59,94,100,9.4,JP,1619886599
284,Kerrobert,51.9168,-109.1348,53.6,50,90,14.97,CA,1619886599
285,Praia da Vitória,38.7333,-27.0667,60.8,88,75,17.38,PT,1619886600
286,Carutapera,-1.195,-46.02,84.99,64,80,4.23,BR,1619886600
287,Itarema,-2.9248,-39.9167,83.57,71,100,5.7,BR,1619886600
288,Cherskiy,68.75,161.3,-2.54,99,30,2.82,RU,1619886600
289,Mastic Beach,40.7668,-72.8521,57.99,41,1,18.41,US,1619886601
290,Charters Towers,-20.1,146.2667,64.98,84,54,7.02,AU,1619886601
291,Hyères,43.1167,6.1167,57.2,100,90,6.91,FR,1619886602
292,Gushikawa,26.3544,127.8686,73.4,88,40,8.05,JP,1619886604
293,Alofi,-19.0595,-169.9187,73.4,100,21,1.14,NU,1619886526
294,Ulaangom,49.9811,92.0667,45.59,37,99,16.11,MN,1619886604
295,Polohy,47.4844,36.2536,62.2,73,29,3.91,UA,1619886605
296,Scarborough,54.2797,-0.4044,48.99,68,41,4.0,GB,1619886605
297,Johnstown,40.3267,-78.922,52.0,42,1,4.61,US,1619886347
298,Lander,42.833,-108.7307,68.0,42,1,8.41,US,1619886458
299,Talcahuano,-36.7167,-73.1167,57.2,88,90,16.11,CL,1619886608
300,Khovu-Aksy,51.1333,93.6,33.26,89,100,5.44,RU,1619886609
301,Chippewa Falls,44.9369,-91.3929,73.99,28,1,14.97,US,1619886610
302,Nador,35.174,-2.9287,64.4,48,0,16.11,MA,1619886610
303,Narsaq,60.9167,-46.05,50.0,22,1,34.52,GL,1619886574
304,Nānākuli,21.3906,-158.1547,75.0,94,75,13.91,US,1619886611
305,Nouadhibou,20.931,-17.0347,73.4,64,4,23.02,MR,1619886611
306,Katsuura,35.1333,140.3,64.4,88,75,11.5,JP,1619886611
307,Rudno,51.7483,22.9461,54.0,82,90,8.05,PL,1619886612
308,Isabela,6.7085,121.9711,80.6,94,90,2.3,PH,1619886499
309,Sørland,67.667,12.6934,37.44,61,100,18.37,NO,1619886593
310,Dejen,10.1667,38.1333,60.93,70,57,5.37,ET,1619886612
311,Mēga,4.05,38.3,61.18,85,78,7.56,ET,1619886613
312,Saint-Pierre,-21.3393,55.4781,77.0,78,0,4.61,RE,1619886613
313,Nakasongola,1.3089,32.4564,71.35,77,96,2.84,UG,1619886613
314,Hurricane,37.1753,-113.2899,78.01,26,1,4.61,US,1619886614
315,Seoul,37.5683,126.9778,46.4,93,90,5.75,KR,1619886614
316,Kaseda-shirakame,31.4167,130.3167,53.01,71,6,11.01,JP,1619886614
317,Los Andes,-32.8337,-70.5983,66.0,63,75,6.91,CL,1619886615
318,Ada,43.4166,-116.1262,62.01,51,1,9.22,US,1619886615
319,Birmingham,33.5207,-86.8025,75.99,35,20,10.36,US,1619886545
320,Mathbaria,22.2876,89.9593,79.57,79,1,3.78,BD,1619886615
321,Sur,22.5667,59.5289,84.63,50,45,11.52,OM,1619886616
322,Lorengau,-2.0226,147.2712,79.83,81,72,2.8,PG,1619886616
323,West Wendover,40.7391,-114.0733,66.2,32,1,3.44,US,1619886616
324,Ostrovnoy,68.0531,39.5131,25.92,71,100,12.53,RU,1619886617
325,Aksay,47.26,39.87,64.0,59,0,11.18,RU,1619886617
326,Leningradskiy,69.3833,178.4167,14.43,89,100,20.74,RU,1619886517
327,Kashgar,39.4547,75.9797,75.2,14,40,13.42,CN,1619886617
328,Sangmélima,2.9333,11.9833,75.6,82,91,3.31,CM,1619886618
329,Waitati,-45.75,170.5667,46.99,73,0,1.99,NZ,1619886619
330,Atambua,-9.1061,124.8925,70.93,86,90,5.08,ID,1619886619
331,Kavaratti,10.5669,72.642,85.6,71,9,6.89,IN,1619886619
332,Lékoni,-1.5843,14.2591,76.35,74,100,4.32,GA,1619886620
333,Inzer,54.2167,57.5556,53.58,49,99,11.7,RU,1619886620
334,Cacequi,-29.8836,-54.825,81.36,32,0,5.5,BR,1619886620
335,Sankheda,22.1667,73.5833,90.36,29,98,4.59,IN,1619886621
336,Laguna,38.421,-121.4238,64.0,67,1,6.91,US,1619886463
337,Presidencia Roque Sáenz Peña,-26.7852,-60.4388,84.0,51,0,1.99,AR,1619886621
338,Ketchikan,55.3422,-131.6461,46.4,93,90,6.91,US,1619886622
339,Rincon,32.296,-81.2354,78.01,46,20,16.11,US,1619886622
340,Port Lincoln,-34.7333,135.8667,61.48,69,16,15.32,AU,1619886623
341,Newport,51.5877,-2.9984,53.01,74,42,3.56,GB,1619886610
342,The Valley,18.217,-63.0578,86.0,69,40,16.11,AI,1619886374
343,Nālūt,30.3333,10.85,94.06,11,97,8.99,LY,1619886623
344,Half Moon Bay,37.4636,-122.4286,62.01,100,90,10.36,US,1619886623
345,Kieta,-6.2167,155.6333,77.99,82,23,3.2,PG,1619886624
346,Kvitok,56.0724,98.4813,33.24,96,100,2.08,RU,1619886624
347,Pierre,44.3683,-100.351,80.01,43,1,8.05,US,1619886625
348,Ambon City,-3.6954,128.1814,81.28,78,41,5.37,ID,1619886625
349,Waingapu,-9.6567,120.2641,77.94,82,32,6.29,ID,1619886625
350,Saint-Leu,-21.15,55.2833,77.0,78,0,4.61,RE,1619886626
351,Jacareacanga,-6.2222,-57.7528,90.43,50,55,3.53,BR,1619886626
352,Constitución,-35.3333,-72.4167,54.82,95,100,8.46,CL,1619886507
353,Bollnäs,61.3482,16.3946,46.99,37,99,4.0,SE,1619886627
354,Snåase,64.2457,12.3778,38.68,63,99,7.2,NO,1619886627
355,Ntcheu,-14.8203,34.6359,63.37,95,28,3.2,MW,1619886627
356,Pandan,14.0453,124.1694,77.29,81,22,6.49,PH,1619886481
357,Koulamoutou,-1.1303,12.4736,75.7,93,99,0.76,GA,1619886628
358,Socorro,31.6546,-106.3033,64.4,51,1,6.91,US,1619886442
359,Qom,34.6401,50.8764,74.66,35,72,12.55,IR,1619886628
360,Puerto del Rosario,28.5004,-13.8627,69.8,60,20,19.57,ES,1619886384
361,Makakilo City,21.3469,-158.0858,75.2,94,75,11.86,US,1619886472
362,Dolores,-36.3132,-57.6792,73.0,47,14,11.59,AR,1619886629
363,Asahikawa,43.7678,142.3703,38.08,86,100,1.81,JP,1619886533
364,Vanimo,-2.6741,141.3028,77.47,88,100,3.47,PG,1619886629
365,Nelson Bay,-32.7167,152.15,57.0,100,31,8.84,AU,1619886630
366,São Miguel do Araguaia,-13.275,-50.1628,85.84,50,100,8.81,BR,1619886630
367,Igarka,67.4667,86.5833,30.11,95,100,7.76,RU,1619886630
368,Yarmouth,41.7057,-70.2286,57.2,47,1,13.8,US,1619886631
369,Ewo,-0.8725,14.8206,75.9,84,100,4.5,CG,1619886631
370,Port Washington,40.8257,-73.6982,57.99,38,20,18.41,US,1619886486
371,Bonwapitse,-23.0766,26.7037,66.02,68,14,12.95,BW,1619886631
372,Tomatlán,19.9333,-105.25,89.78,31,41,6.26,MX,1619886632
373,Cairns,-16.9167,145.7667,73.4,83,90,10.36,AU,1619886632
374,Lerwick,60.1545,-1.1494,42.8,70,90,3.44,GB,1619886632
375,Eldorado,-23.7869,-54.2836,83.64,32,31,7.07,BR,1619886633
376,San José de Río Tinto,14.9333,-85.7,87.8,48,40,2.3,HN,1619886633
377,Grand Gaube,-20.0064,57.6608,75.99,88,11,3.0,MU,1619886633
378,Cuamba,-14.8031,36.5372,69.8,92,15,2.57,MZ,1619886634
379,Tuatapere,-46.1333,167.6833,46.0,87,1,7.0,NZ,1619886634
380,Cockburn Town,21.4612,-71.1419,82.4,61,40,8.05,TC,1619886634
381,Pandamatenga,-18.5278,25.627,73.51,50,99,2.37,BW,1619886635
382,Ishinomaki,38.4167,141.3,51.62,91,99,10.51,JP,1619886635
383,Belaya Gora,68.5333,146.4167,5.47,99,72,4.25,RU,1619886635
384,Cartagena,10.3997,-75.5144,87.8,70,40,9.22,CO,1619886636
385,Caicó,-6.4583,-37.0978,95.34,28,50,13.22,BR,1619886636
386,Wangqing,43.3218,129.7634,42.35,75,100,3.51,CN,1619886636
387,Poya,-21.35,165.15,69.84,86,81,4.23,NC,1619886637
388,Kudahuvadhoo,2.6708,72.8944,83.93,65,18,3.11,MV,1619886637
389,Diffa,13.3154,12.6113,97.95,6,54,8.3,NE,1619886638
390,Znamenskoye,57.1281,73.8282,37.2,62,25,4.14,RU,1619886638
391,Nabire,-3.3667,135.4833,75.7,91,99,3.06,ID,1619886638
392,Constantine,36.365,6.6147,59.0,77,75,16.11,DZ,1619886486
393,Zlobin,45.2924,14.6541,64.99,77,75,5.75,HR,1619886639
394,Yeppoon,-23.1333,150.7333,66.2,82,44,10.36,AU,1619886639
395,Te Anau,-45.4167,167.7167,39.09,87,14,1.25,NZ,1619886639
396,Várzea da Palma,-17.5981,-44.7308,82.6,39,81,3.87,BR,1619886640
397,Mandurah,-32.55,115.7,57.99,72,4,7.7,AU,1619886640
398,Marzuq,14.4,46.4667,72.03,72,100,9.4,YE,1619886641
399,Nhulunbuy,-12.2333,136.7667,78.8,83,90,5.75,AU,1619886641
400,Kailua,21.4022,-157.7394,75.2,78,75,12.66,US,1619886641
401,Westport,41.1415,-73.3579,57.99,41,1,21.85,US,1619886642
402,Tucuruí,-3.7661,-49.6725,82.81,77,95,3.13,BR,1619886642
403,Hay River,60.8156,-115.7999,24.8,93,100,9.22,CA,1619886347
404,Karratha,-20.7377,116.8463,80.29,59,43,6.06,AU,1619886642
405,Pisco,-13.7,-76.2167,70.0,78,6,10.36,PE,1619886469
406,Druzhba,52.0428,33.9453,52.29,78,95,6.62,UA,1619886643
407,Gummidipundi,13.4,80.15,84.2,74,40,6.91,IN,1619886643
408,Vanavara,60.34,102.2797,29.5,96,14,4.29,RU,1619886644
409,Wajima,37.4,136.9,52.97,85,29,29.53,JP,1619886644
410,Kurumkan,54.3,110.3,37.33,77,100,3.49,RU,1619886645
411,Kenai,60.5544,-151.2583,33.01,86,1,6.91,US,1619886645
412,Malatya Province,38.5,38.0,73.4,21,20,12.66,TR,1619886645
413,Crixás,-14.5489,-49.9692,84.45,53,100,6.33,BR,1619886646
414,La Tuque,47.4334,-72.7824,44.6,23,32,13.8,CA,1619886646
415,Wuda,39.4994,106.7117,64.81,29,76,13.73,CN,1619886646
416,Mt. Pleasant,32.7941,-79.8626,73.99,40,1,9.22,US,1619886647
417,Batemans Bay,-35.7167,150.1833,57.99,96,100,1.01,AU,1619886647
418,Nadvoitsy,63.8667,34.3167,32.81,65,95,18.07,RU,1619886647
419,Talakan,50.3167,130.3667,43.12,70,78,3.94,RU,1619886648
420,Maceió,-9.6658,-35.7353,82.4,83,75,9.22,BR,1619886648
421,Avera,33.194,-82.5271,75.2,33,1,5.75,US,1619886572
422,Vila Velha,-20.3297,-40.2925,81.0,61,75,13.8,BR,1619886648
423,Baturaja,-4.1333,104.1667,73.81,98,95,2.46,ID,1619886649
424,Forsytheganj,52.6333,29.7333,49.53,78,100,5.23,BY,1619886649
425,Iranshahr,27.2025,60.6848,66.2,88,90,4.61,IR,1619886649
426,Mount Gambier,-37.8333,140.7667,66.2,45,40,14.97,AU,1619886650
427,Bac Lieu,9.285,105.7244,84.18,74,73,10.04,VN,1619886650
428,Merauke,-8.4667,140.3333,76.57,90,42,10.2,ID,1619886650
429,Orël-Izumrud,43.4583,39.9244,59.0,88,20,6.71,RU,1619886651
430,Galle,6.0367,80.217,81.18,79,97,1.48,LK,1619886607
431,Chui,-33.6971,-53.4616,73.92,53,2,5.73,UY,1619886651
432,Ouadda,8.0777,22.4007,81.93,37,100,3.13,CF,1619886651
433,Kupang,-10.1667,123.5833,76.73,80,20,9.71,ID,1619886652
434,Petauke,-14.2426,31.3253,70.48,74,98,6.26,ZM,1619886652
435,Chunskiy,56.0815,99.6342,35.11,92,99,1.16,RU,1619886653
436,Sola,-13.8833,167.55,78.93,76,97,12.37,VU,1619886653
437,Mīrābād,30.4362,61.8383,72.0,56,88,20.89,AF,1619886653
438,Caxito,-8.5785,13.6643,80.6,83,40,10.36,AO,1619886654
439,Marawi,7.9986,124.2928,77.0,87,81,5.01,PH,1619886654
440,Monticello,45.3055,-93.7941,77.0,29,1,7.31,US,1619886654
441,Newtownards,54.5924,-5.6909,50.0,57,20,4.61,GB,1619886655
442,Hobyo,5.3505,48.5268,85.37,64,60,12.91,SO,1619886655
443,Suntar,62.1444,117.6319,34.07,98,100,2.57,RU,1619886655
444,Provincia di Campobasso,41.6333,14.5833,70.0,94,91,13.0,IT,1619886654
445,Astoria,46.1879,-123.8313,53.6,76,90,8.05,US,1619886609
446,Sines Municipality,37.9562,-8.8698,62.01,54,25,8.01,PT,1619886524
447,Bilibino,68.0546,166.4372,-5.84,89,43,4.65,RU,1619886656
448,Mirny,62.5353,113.9611,31.6,99,100,2.66,RU,1619886656
449,Mehamn,71.0357,27.8492,32.74,92,93,7.38,NO,1619886657
450,Mariehamn,60.0973,19.9348,41.0,36,0,8.05,AX,1619886657
451,Ghanzi,-21.5667,21.7833,68.41,24,0,7.72,BW,1619886657
452,Sept-Îles,50.2001,-66.3821,55.4,47,95,2.3,CA,1619886362
453,Kanniyākumāri,8.0833,77.5667,83.82,75,76,5.82,IN,1619886658
454,Simpang,-1.2667,104.0833,74.68,96,48,0.81,ID,1619886658
455,Terekli-Mekteb,44.1671,45.8698,67.51,62,100,7.7,RU,1619886658
456,Hammerfest,70.6634,23.6821,32.0,80,75,8.05,NO,1619886615
457,Labuhan,-6.8844,112.2051,79.68,85,94,7.96,ID,1619886659
458,Carballo,43.213,-8.691,55.99,56,75,8.01,ES,1619886659
459,Ust'-Kut,56.7938,105.7672,31.28,95,100,2.08,RU,1619886660
460,Ventspils,57.3894,21.5606,44.6,76,0,9.22,LV,1619886660
461,Pangnirtung,66.1451,-65.7125,42.8,61,75,14.97,CA,1619886660
462,Darnah,32.767,22.6367,80.44,35,24,1.48,LY,1619886661
463,Mlimba,-8.8,35.8167,72.39,94,87,3.15,TZ,1619886661
464,Codrington,-38.2667,141.9667,59.2,73,89,6.38,AU,1619886661
465,Banda Aceh,5.5577,95.3222,80.96,78,100,8.32,ID,1619886660
466,Gornopravdinsk,60.05,69.9,41.56,48,100,11.18,RU,1619886662
467,Artyom,40.4723,50.333,58.64,83,100,11.83,AZ,1619886663
468,Aksarka,66.5606,67.7975,26.6,80,95,16.24,RU,1619886663
469,Bambanglipuro,-7.95,110.2833,77.49,86,51,5.35,ID,1619886659
470,Siderno,38.2779,16.302,78.8,44,100,11.5,IT,1619886664
471,Kovdor,67.5662,30.4758,29.52,71,81,3.65,RU,1619886664
472,Maragogi,-9.0122,-35.2225,81.79,73,100,12.08,BR,1619886664
473,Srednekolymsk,67.45,153.6833,5.56,96,12,5.68,RU,1619886665
474,Shache,38.4167,77.2406,74.48,14,83,3.2,CN,1619886665
475,Kumul,42.8,93.45,68.07,34,13,23.26,CN,1619886665
476,Amazar,53.858,120.875,41.54,80,87,1.63,RU,1619886666
477,Najrān,17.4924,44.1277,84.2,17,40,6.91,SA,1619886666
478,Pathein,16.7833,94.7333,80.2,76,51,4.27,MM,1619886667
479,Sankt Florian,48.2057,14.3784,64.4,59,75,10.36,AT,1619886667
480,Bāntva,21.4864,70.0689,84.63,63,32,9.4,IN,1619886667
481,Vila Franca do Campo,37.7167,-25.4333,60.8,82,75,11.5,PT,1619886668
482,Enid,36.3956,-97.8784,71.01,77,90,13.8,US,1619886668
483,Port Hedland,-20.3167,118.5667,71.6,94,1,2.3,AU,1619886668
484,Guilin,25.2819,110.2864,71.6,88,0,2.24,CN,1619886669
485,Saquena,-4.6667,-73.5167,83.89,67,34,0.89,PE,1619886669
486,Iquitos,-3.7481,-73.2472,73.4,94,90,3.44,PE,1619886669
487,Griffith,41.5284,-87.4237,63.0,39,1,24.16,US,1619886553
488,Levice,48.2156,18.6071,71.01,58,65,1.99,SK,1619886670
489,Gijang,35.2442,129.2139,53.6,50,20,9.22,KR,1619886670
490,Mil'kovo,54.7167,158.6167,33.62,93,100,0.74,RU,1619886671
491,Kununurra,-15.7667,128.7333,66.2,88,0,2.3,AU,1619886671
492,Virginia Beach,36.8529,-75.978,62.6,29,20,18.41,US,1619886516
493,Zhigalovo,54.8097,105.1578,30.92,98,100,1.74,RU,1619886671
494,Poykovskiy,61.2333,73.3333,33.8,86,0,2.24,RU,1619886612
495,Pendleton,45.6721,-118.7886,57.0,94,90,4.61,US,1619886672
496,Prainha,-1.8,-53.48,79.11,78,84,5.32,BR,1619886672
497,Yar-Sale,66.8333,70.8333,17.11,91,56,9.4,RU,1619886673
498,Gogrial,8.5332,28.1004,89.82,30,93,4.52,SS,1619886673
499,Myitkyina,25.3833,97.4,69.57,92,53,2.19,MM,1619886673
500,Pismo Beach,35.1428,-120.6413,62.01,76,75,4.61,US,1619886674
501,Telhāra,21.0269,76.8389,90.61,26,98,6.29,IN,1619886674
502,Hamada,34.8833,132.0833,55.0,10,48,3.0,JP,1619886674
503,Salta,-24.7859,-65.4117,70.0,56,0,3.44,AR,1619886675
504,Baykit,61.67,96.37,31.91,96,97,3.94,RU,1619886466
505,Iskateley,67.6803,53.1512,32.63,97,100,14.88,RU,1619886675
506,Egvekinot,66.3167,-179.1667,10.0,87,100,5.1,RU,1619886484
507,Khipro,25.8285,69.3772,90.82,27,100,9.62,PK,1619886676
508,Paragominas,-2.9667,-47.4833,82.6,74,100,0.54,BR,1619886676
509,Sistranda,63.7256,8.834,42.8,65,20,12.66,NO,1619886676
510,Kozachi Laheri,46.7037,32.9776,66.0,77,0,6.71,UA,1619886677
511,Tutóia,-2.7619,-42.2744,78.8,89,75,5.75,BR,1619886677
512,Mokhsogollokh,61.4681,128.9203,30.0,98,100,2.68,RU,1619886677
513,Santa Maria,-29.6842,-53.8069,80.6,44,0,4.61,BR,1619886678
514,Ancud,-41.8697,-73.8203,57.0,82,75,8.05,CL,1619886678
515,Verkhnevilyuysk,63.4453,120.3167,33.75,99,100,4.68,RU,1619886679
516,Corvallis,44.5646,-123.262,51.01,100,90,6.91,US,1619886604
517,Gdynia,54.5189,18.5319,48.0,53,0,9.22,PL,1619886556
518,Lesozavodsk,45.4794,133.4244,43.77,57,4,10.33,RU,1619886679
519,Muros,42.7762,-9.0603,61.0,41,86,14.43,ES,1619886679
520,Colares,38.7992,-9.4469,60.8,55,40,14.97,PT,1619886680
521,Cap Malheureux,-19.9842,57.6142,75.99,88,10,3.0,MU,1619886680
522,Elizabeth City,36.2946,-76.2511,64.0,29,1,13.8,US,1619886680
523,Biak,-0.9131,122.8766,76.62,86,91,3.71,ID,1619886681
524,Erenhot,43.6475,111.9767,46.06,21,55,17.74,CN,1619886681
525,General Roca,-39.0333,-67.5833,59.0,72,90,9.22,AR,1619886681
526,Bubaque,11.2833,-15.8333,79.63,69,27,17.47,GW,1619886682
527,Umluj,25.0213,37.2685,84.29,48,0,4.23,SA,1619886682
528,Viedma,-40.8135,-62.9967,74.16,32,98,14.79,AR,1619886682
529,Trincomalee,8.5711,81.2335,82.9,77,100,9.86,LK,1619886683
530,Palora,-1.7,-77.9333,69.8,83,75,5.75,EC,1619886678
531,Sulangan,11.1373,123.7228,82.9,73,11,12.62,PH,1619886683
532,Fort Nelson,58.8053,-122.7002,44.6,57,75,3.44,CA,1619886600
533,Orizona,-17.0314,-48.2958,76.21,55,100,11.77,BR,1619886684
534,Norman Wells,65.282,-126.8329,32.0,69,20,3.44,CA,1619886534
535,Palana,59.1167,159.9667,24.58,85,36,5.84,RU,1619886684
536,Irbeyskoye,55.6428,95.4522,39.81,81,98,4.52,RU,1619886685
537,Pahrump,36.2083,-115.9839,82.99,15,83,8.99,US,1619886685
538,Bonavista,48.6499,-53.1147,51.8,76,57,13.8,CA,1619886685
539,Ankpa,7.3706,7.6253,88.66,51,87,6.58,NG,1619886686
540,Manono,-7.3,27.4167,72.79,91,98,1.45,CD,1619886686
541,Pingdu,36.7844,119.9464,44.6,70,0,4.47,CN,1619886686
542,Dauphin,51.1494,-100.0502,66.2,32,20,12.66,CA,1619886687
543,Khandyga,62.6667,135.6,29.39,99,100,2.59,RU,1619886687
544,Riyadh,24.6877,46.7219,93.2,12,0,12.66,SA,1619886399
545,Rio Grande,-32.035,-52.0986,78.8,53,0,2.3,BR,1619886687
546,Okha,53.5739,142.9478,30.0,93,100,10.71,RU,1619886688
547,Khani,41.9563,42.9566,66.2,52,0,9.22,GE,1619886688
548,Kozhva,65.1073,57.0459,36.77,96,100,11.45,RU,1619886689
549,Manicoré,-5.8092,-61.3003,86.0,74,75,3.44,BR,1619886689
550,Poum,-20.2333,164.0167,75.33,76,95,12.88,NC,1619886689
551,Guarapari,-20.6667,-40.4975,81.0,61,75,13.8,BR,1619886690
552,Sangar,63.9242,127.4739,36.18,94,100,7.94,RU,1619886690
553,Diré,12.2833,-10.9667,107.4,15,37,4.74,ML,1619886541
554,Lishu,43.3047,124.3278,46.81,58,82,6.06,CN,1619886690
555,Vilhena,-12.7406,-60.1458,80.6,69,75,6.91,BR,1619886491
556,Ozuluama de Mascareñas,21.6667,-97.85,86.99,55,93,4.36,MX,1619886691
557,Shalyhyne,51.5717,34.1217,53.94,73,90,4.94,UA,1619886691
558,Batagay-Alyta,67.8006,130.4114,18.19,95,99,4.47,RU,1619886692
559,Acajutla,13.5928,-89.8275,80.01,78,20,5.75,SV,1619886692
560,Piúma,-20.8378,-40.7219,75.36,68,95,9.33,BR,1619886603
561,Marsh Harbour,26.5412,-77.0636,80.04,70,63,8.77,BS,1619886692
562,Kefamenanu,-9.4467,124.4781,71.28,85,62,4.54,ID,1619886693
563,Keningau,5.3378,116.1602,77.0,100,20,2.3,MY,1619886693
564,Doha,25.2867,51.5333,87.01,65,0,4.61,QA,1619886693
565,Teya,60.3778,92.6267,35.01,91,97,9.22,RU,1619886694
566,Sarangani,5.4033,125.4636,83.05,73,100,17.74,PH,1619886694
567,Peace River,56.2501,-117.286,46.4,61,90,12.66,CA,1619886694
568,Porto Walter,-8.2686,-72.7439,91.09,43,9,1.48,BR,1619886695
569,Puerto Gaitán,4.3133,-72.0816,82.6,65,68,5.03,CO,1619886695
570,Aginskoye,51.1,114.53,46.26,47,100,10.98,RU,1619886695
571,Río Gallegos,-51.6226,-69.2181,41.0,81,0,4.61,AR,1619886696
572,Kohima,25.6667,94.1167,64.67,70,86,3.6,IN,1619886696
573,Yangi Marg`ilon,40.4272,71.7189,68.0,64,75,9.22,UZ,1619886696
574,Russell,32.3502,-85.1999,75.2,35,1,5.75,US,1619886547
575,Chu,43.5983,73.7614,57.34,42,100,16.4,KZ,1619886697
576,Coahuayana Viejo,18.7333,-103.6833,77.0,61,20,4.79,MX,1619886581
577,Charter Township of Clinton,42.587,-82.9199,57.0,43,75,13.8,US,1619886475
578,Ukiah,39.1502,-123.2078,64.4,63,1,12.66,US,1619886411
579,Leh,34.1667,77.5833,42.17,44,34,3.04,IN,1619886697
580,Pirgos,35.1167,25.7178,81.0,61,0,1.7,GR,1619886698
